,Unnamed: 0,source,code,site,Address,la_id,Authority,site_type,os_grid_x,os_grid_y,latitude,longitude,OpeningDate,ClosingDate,end_year,start_year,geometry
128,129,kcl,GB6,Greenwich - Falconwood,Crown Woods Way,3,Bexley,Roadside,544997.0,175098.0,51.4563,0.085606,2000-10-18 10:15:00,,2024,2000,POINT (544997.0000435165 175098.0000825632)
19,20,kcl,BQ9,Bexley - Slade Green Fidas,"Whitehall Lane, Bexley ",3,Bexley,Suburban,551864.0,176379.0,51.4659832746662,0.184877126994369,2020-10-01 01:00:00,,2024,2020,POINT (551864.0000455774 176379.0000829462)
376,377,kcl,BX1,Bexley - Slade Green,"Whitehall Lane, Bexley ",3,Bexley,Suburban,551864.0,176379.0,51.4659832746662,0.184877126994369,1994-05-25 01:00:00,,2024,1994,POINT (551864.0000455774 176379.0000829462)
165,166,kcl,BX9,Bexley - Slade Green FDMS,"Whitehall Lane, Bexley ",3,Bexley,Suburban,551864.0,176379.0,51.4659832746662,0.184877126994369,2008-10-21 01:00:00,2020-10-01 01:00:00,2020,2008,POINT (551864.0000455774 176379.0000829462)
398,399,kcl,GN3,Greenwich - Plumstead High Street,Greenwich 13 - Plumstead High Street (A206),11,Greenwich,Roadside,545560.0,178526.0,51.486957,0.095111,2006-01-27,,2024,2006,POINT (545560.0000436854 178526.00008359045)
144,145,kcl,BX0,Bexley - Belvedere FDMS,"Belvedere Infants Sch, Mitchel Cl, Belvedere",3,Bexley,Suburban,549980.0,179064.0,51.4906102082147,0.158914493927518,2004-04-28 01:00:00,2022-01-28,2022,2004,POINT (549980.000045012 179064.0000837521)
377,378,kcl,BX2,Bexley - Belvedere,"Belvedere Infants Sch, Mitchel Cl, Belvedere",3,Bexley,Suburban,549980.0,179064.0,51.4906102082147,0.158914493927518,1998-01-24 15:00:00,,2024,1998,POINT (549980.000045012 179064.0000837521)
170,171,kcl,BQ8,Bexley - Belvedere West FDMS,"Harris Garrad Academy, Yanton Way, Erith",3,Bexley,Urban Background,548465.0,179469.0,51.4946486813055,0.137279111232178,2010-08-24 01:00:00,2022-02-23,2022,2010,POINT (548465.0000445573 179469.0000838742)
375,376,kcl,BQ7,Bexley - Belvedere West,"Harris Garrad Academy, Yanton Way, Erith",3,Bexley,Urban Background,548465.0,179469.0,51.4946486813055,0.137279111232178,2010-08-24 01:00:00,,2024,2010,POINT (548465.0000445573 179469.0000838742)
88,89,kcl,HV1,Havering - Rainham,"Brenda Blakemore Community Centre, Chandlers Corner, New Road (A13), Rainham",16,Havering,Roadside,553110.0,182516.0,51.520787459334,0.205460705694044,1995-12-08,,2024,1995,POINT (553110.0000459513 182516.0000847894)
239,240,kcl,BG2,Barking and Dagenham - Scrattons Farm,"Scrattons Farm, Dagenham",1,Barking and Dagenham,Suburban,548043.0,183320.0,51.529389,0.132857,1999-10-17 01:00:00,,2024,1999,POINT (548043.0000444306 183320.00008503022)
85,86,kcl,BG1,Barking and Dagenham - Rush Green,Rush Green,1,Barking and Dagenham,Suburban,551053.0,187233.0,51.563752,0.177891,1999-11-02,,2024,1999,POINT (551053.000045334 187233.0000862038)
89,90,kcl,HV3,Havering - Romford,Oldchurch Hospital,16,Havering,Roadside,551105.0,188261.0,51.572976,0.179079,1998-12-22 10:00:00,,2024,1998,POINT (551105.0000453496 188261.0000865127)
25,26,kcl,HPT,Honor Oak Park Total Carbon Analyser,"King's College Sports Ground, Honor Oak Park",651,DEFRA Particles,Urban Background,536473.0,174128.0,51.4496728960354,-0.0374153592115306,2018-11-27,,2024,2018,POINT (536473.0000409583 174128.00008227053)
24,25,kcl,HP8,Honor Oak Park SMPS 3083,"King's College Sports Ground, Honor Oak Park",651,DEFRA Particles,Urban Background,536473.0,174128.0,51.4496728960354,-0.0374153592115306,2018-11-27,,2024,2018,POINT (536473.0000409583 174128.00008227053)
14,15,kcl,HPX,Honor Oak Park Sonic Anemometer,"King's College Sports Ground, Honor Oak Park",651,DEFRA Particles,Urban Background,536473.0,174128.0,51.4496728960354,-0.0374153592115306,2018-11-27,,2024,2018,POINT (536473.0000409583 174128.00008227053)
12,13,kcl,HPZ,Honor Oak Park LGR Multigas,"King's College Sports Ground, Honor Oak Park",651,DEFRA Particles,Urban Background,536473.0,174128.0,51.4496728960354,-0.0374153592115306,2018-11-27,,2024,2018,POINT (536473.0000409583 174128.00008227053)
3,4,kcl,HP0,Honor Oak Park XACT,"King's College Sports Ground, Honor Oak Park",651,DEFRA Particles,Urban Background,536473.0,174128.0,51.4496728960354,-0.0374153592115306,2018-11-27,,2024,2018,POINT (536473.0000409583 174128.00008227053)
518,519,kcl,HP5,Honor Oak Park ACSM,"King's College Sports Ground, Honor Oak Park",651,DEFRA Particles,Urban Background,536473.0,174128.0,51.4496728960354,-0.0374153592115306,2018-11-27,,2024,2018,POINT (536473.0000409583 174128.00008227053)
64,65,kcl,GR4,Greenwich - Eltham,"ECC (Nature Study Centre), Bexley Road, Eltham",11,Greenwich,Suburban,543978.0,174655.0,51.45258,0.070766,1995-01-01,,2024,1995,POINT (543978.0000432106 174655.00008242857)
76,77,kcl,WA2,Wandsworth - Wandsworth Town Hall,"Town Hall, Wandworth High Street, Wandsworth, London",32,Wandsworth,Urban Background,525774.0,174660.0,51.456962,-0.191074,1994-10-11 15:00:00,2024-01-25,2024,1994,POINT (525774.0000377473 174660.00008243026)
366,367,kcl,GR9,Greenwich - Westhorne Avenue,Westhorne Avenue,11,Greenwich,Roadside,541879.0,175016.0,51.456357,0.040725,2004-10-01 01:00:00,,2024,2004,POINT (541879.0000425808 175016.0000825369)
236,237,kcl,GB0,Greenwich - Falconwood FDMS,Crown Woods Way,3,Bexley,Roadside,544997.0,175098.0,51.4563,0.085606,2009-03-16,,2024,2009,POINT (544997.0000435165 175098.0000825632)
243,244,kcl,WA7,Wandsworth - Putney High Street,94a Putney High Street,32,Wandsworth,Kerbside,524036.0,175336.0,51.463429,-0.215871,2009-07-09 01:00:00,,2024,2009,POINT (524036.0000372257 175336.0000826331)
440,441,kcl,WA8,Wandsworth - Putney High Street Facade,"Vodafone Store, 94a Putney High Street",32,Wandsworth,Roadside,524034.0,175373.0,51.4637206047191,-0.215890144123119,2010-04-23 01:00:00,2024-01-25,2024,2010,POINT (524034.0000372251 175373.00008264388)
484,485,kcl,WAC,Wandsworth - Lavender Hill (Clapham Jct),313 Lavender Hill,32,Wandsworth,Roadside,527450.0,175454.0,51.4636903568111,-0.166713485994806,2016-04-14 01:00:00,,2024,2016,POINT (527450.0000382502 175454.00008266844)
438,439,kcl,WA9,Wandsworth - Putney,"Felsham Road, Putney",32,Wandsworth,Urban Background,524035.0,175519.0,51.4650325059122,-0.215824580947572,2011-01-04,,2024,2011,POINT (524035.00003722537 175519.0000826884)
111,112,kcl,LB4,Lambeth - Brixton Road,Brixton Road,22,Lambeth,Kerbside,531070.0,175593.0,51.464113541162,-0.11458102695123,2003-12-18,,2024,2003,POINT (531070.0000393367 175593.0000827121)
246,247,kcl,LW4,Lewisham - Loampit Vale,"Loampit Vale, Lewisham, ",23,Lewisham,Roadside,537911.0,175838.0,51.4646910611736,-0.0160682432041527,2012-07-10 01:00:00,,2024,2012,POINT (537911.0000413898 175838.00008278427)
132,133,kcl,GR7,Greenwich - Blackheath,Blackheath Hill,11,Greenwich,Roadside,538141.0,176710.0,51.472504,-0.012381,2002-03-08 11:00:00,,2024,2002,POINT (538141.0000414589 176710.00008304534)
124,125,kcl,RI2,Richmond Upon Thames - Barnes Wetlands,"Barnes Wetlands Center, Richmond",27,Richmond,Suburban,522989.0,176729.0,51.476168,-0.230427,2001-03-29 11:00:00,,2024,2001,POINT (522989.0000369114 176729.00008305232)
391,392,kcl,LW2,Lewisham - New Cross,"Newcross Road, New Cross",23,Lewisham,Roadside,536241.0,176932.0,51.474954,-0.039641,2002-03-31 14:45:00,,2024,2002,POINT (536241.0000408887 176932.0000831121)
123,124,kcl,RI1,Richmond Upon Thames - Castelnau,"Castelnau Library grounds, Castelnau, Richmond",27,Richmond,Roadside,522498.0,177165.0,51.480189,-0.237335,2000-06-14 01:15:00,,2024,2000,POINT (522498.0000367641 177165.00008318177)
413,414,kcl,WAA,Wandsworth - Battersea,"Thessaly Road, Wandsworth",32,Wandsworth,Roadside,529137.0,177249.0,51.4794395281222,-0.141786953606306,2012-06-19 01:00:00,,2024,2012,POINT (529137.0000387565 177249.00008320733)
141,142,kcl,GR2,Greenwich Black Smoke (GREENWICH 9),Greenwich High Road,650,DEFRA Black Smoke,Urban Background,538200.0,177300.0,51.4777582451782,-0.0113393412841005,1973-04-03 01:00:00,,2024,1973,POINT (538200.0000414766 177300.0000832227)
38,39,kcl,LW5,Lewisham - Deptford,"Crossfield Street, Deptford, Lewisham, ",23,Lewisham,Urban Background,537228.0,177471.0,51.4795312838203,-0.0252606031340197,2019-09-20 01:00:00,,2024,2019,POINT (537228.0000411848 177471.0000832741)
492,493,kcl,SK5,Southwark - A2 Old Kent Road,"Toys R Us, Old Kent Road, London",28,Southwark,Roadside,534844.0,177515.0,51.4804994936467,-0.0595528932573422,2010-11-24,,2024,2010,POINT (534844.0000404693 177515.00008328643)
16,17,kcl,SK9,Southwark - A2 Old Kent Road FIDAS,"Toys R Us, Old Kent Road, London",28,Southwark,Roadside,534844.0,177515.0,51.4804994936467,-0.0595528932573422,2010-11-24,,2024,2010,POINT (534844.0000404693 177515.00008328643)
145,146,kcl,LB5,Lambeth - Bondway Interchange,"Vauxhall Cross Interchange, traffic island in middle of Bondway / Wandsworth Road",22,Lambeth,Industrial,530317.0,177952.0,51.4854867739729,-0.124545234819213,2005-02-01,,2024,2005,POINT (530317.0000391108 177952.0000834191)
488,489,kcl,GN5,Greenwich - Trafalgar Road (Hoskins St),Hoskins Street,11,Greenwich,Roadside,538997.0,178006.0,51.4839072533485,0.0004073969358497,2017-10-12 01:00:00,,2024,2017,POINT (538997.0000417158 178006.00008343405)
161,162,kcl,GR8,Greenwich - Woolwich Flyover,Woolwich Flyover,11,Greenwich,Roadside,540200.0,178367.0,51.486884,0.017901,2004-07-08 01:00:00,,2024,2004,POINT (540200.0000420768 178367.00008354307)
47,48,kcl,WMD,Westminster - Elizabeth Bridge,"Elizabeth Bridge, St. James's, Victoria",33,Westminster,Roadside,528731.0,178664.0,51.4922482333024,-0.147114752900186,2020-04-27 01:00:00,,2024,2020,POINT (528731.0000386348 178664.00008363236)
517,518,kcl,WMA,Westminster - Buckingham Palace Road,146 Buckingham Palace Road,33,Westminster,Roadside,528709.0,178773.0,51.4932327916861,-0.147391757027028,2018-02-18,2020-04-27 11:00:00,2020,2018,POINT (528709.0000386281 178773.00008366548)
182,183,kcl,XL5,Heygate Intel 5,Walworth Rd,500,ERG Research,Urban Background,532101.0,178832.0,51.4929813788003,-0.0985378910481832,2015-04-13 01:00:00,,2024,2015,POINT (532101.0000396462 178832.00008368207)
173,174,kcl,XL4,Heygate Intel 4,Walworth Rd,500,ERG Research,Urban Background,532101.0,178832.0,51.4929813788003,-0.0985378910481832,2015-04-13 01:00:00,,2024,2015,POINT (532101.0000396462 178832.00008368207)
120,121,kcl,XL1,Heygate Intel 1,Walworth Rd,500,ERG Research,Urban Background,532101.0,178832.0,51.4929813788003,-0.0985378910481832,2015-04-13 01:00:00,,2024,2015,POINT (532101.0000396462 178832.00008368207)
86,87,kcl,XL2,Heygate Intel 2,Walworth Rd,500,ERG Research,Urban Background,532101.0,178832.0,51.4929813788003,-0.0985378910481832,2015-04-13 01:00:00,,2024,2015,POINT (532101.0000396462 178832.00008368207)
424,425,kcl,XL3,Heygate Intel 3,Walworth Rd,500,ERG Research,Urban Background,532101.0,178832.0,51.4929813788003,-0.0985378910481832,2015-04-13 01:00:00,,2024,2015,POINT (532101.0000396462 178832.00008368207)
258,259,kcl,XL6,Heygate Intel 6,Walworth Rd,500,ERG Research,Urban Background,532101.0,178832.0,51.4929813788003,-0.0985378910481832,2015-04-13 01:00:00,,2024,2015,POINT (532101.0000396462 178832.00008368207)
348,349,kcl,SK6,Southwark - Elephant and Castle,Elephant and Castle,28,Southwark,Urban Background,531893.0,178846.0,51.4931557048667,-0.101527038274853,2013-01-23,,2024,2013,POINT (531893.0000395837 178846.00008368737)
404,405,kcl,GN0,Greenwich - A206 Burrage Grove,"A206, Burrage Grove",11,Greenwich,Roadside,544084.0,178881.0,51.490532,0.074003,2004-10-07 01:00:00,,2024,2004,POINT (544084.0000432425 178881.0000836975)
166,167,kcl,GV1,Westminster - Ebury Street (Grosvenor),"133 Ebury Street, Belgravia",33,Westminster,Roadside,528350.0,178921.0,51.493492,-0.149906,2018-12-11 09:00:00,2023-11-15,2023,2018,POINT (528350.0000385203 178921.00008370925)
143,144,kcl,WM2,Westminster Black Smoke (WESTMINSTER 17),Westminster,650,DEFRA Black Smoke,Urban Background,529802.0,178962.0,51.4946816299134,-0.131587057244986,1986-04-01 01:00:00,,2024,1986,POINT (529802.0000389562 178962.00008372136)
363,364,kcl,WM0,Westminster - Horseferry Road,Horseferry Road,33,Westminster,Urban Background,529802.0,178962.0,51.494681,-0.131938,2001-07-17 01:00:00,,2024,2001,POINT (529802.0000389562 178962.00008372136)
284,285,kcl,GN6,Greenwich - John Harrison Way,Greenwich John Harrison Way,11,Greenwich,Roadside,539687.0,179123.0,51.4937746695818,0.0107796237032558,2018-07-02 01:00:00,,2024,2018,POINT (539687.0000419228 179123.00008376944)
22,23,kcl,TL4,Greenwich - Tunnel Avenue,A102 Blackwall Tunnel Southern Approach,11,Greenwich,Roadside,539220.0,179250.0,51.495057,0.0041074676,2020-12-04,,2024,2020,POINT (539220.0000417827 179250.00008380844)
17,18,kcl,SKA,Southwark - Lower Road,Lower Road,28,Southwark,Roadside,535248.0,179313.0,51.4965604167321,-0.0530504472531612,2020-11-24,,2024,2020,POINT (535248.0000405905 179313.00008382637)
516,517,kcl,EI3,Ealing - Acton Vale ,"Acton Pumping Station entrance, junction of Canham Road and Warple Way",9,Ealing,Urban Background,521234.0,179771.0,51.5038527919816,-0.254668101620372,2017-11-23,,2024,2017,POINT (521234.0000363847 179771.0000839645)
6,7,kcl,SK8,Southwark - Tower Bridge Road,Tower Bridge Road,28,Southwark,Roadside,533488.0,179804.0,51.5013906712066,-0.0782034373606952,2019-06-01 01:00:00,,2024,2019,POINT (533488.0000400625 179804.00008397392)
23,24,kcl,TL6,Newham - Britannia Gate,Britannia Gate/Silvertown Way,25,Newham,Roadside,540336.0,180260.0,51.503858,0.020574415,2020-12-04,,2024,2020,POINT (540336.0000421177 180260.0000841114)
20,21,kcl,CE2,Waterloo Place (The Crown Estate),12 Waterloo Place,33,Westminster,Roadside,529662.0,180391.0,51.5075819137762,-0.133068372704093,2020-12-21,,2024,2020,POINT (529662.0000389141 180391.00008415105)
72,73,kcl,CT8,City of London - Upper Thames Street,Upper Thames Street,7,City of London,Roadside,532829.0,180694.0,51.5095436853913,-0.0873571979556188,2007-04-22 01:00:00,2021-09-13 01:00:00,2021,2007,POINT (532829.0000398646 180694.00008424092)
63,64,kcl,CT6,City of London - Walbrook Wharf,Upper Thames Street / Walbrook Wharf,7,City of London,Roadside,532527.0,180789.0,51.510499,-0.091634,2007-04-01 01:00:00,2023-01-09,2023,2007,POINT (532527.000039774 180789.00008427148)
495,496,kcl,CE1,Regent Street facade (The Crown Estate),139 Regent Street,33,Westminster,Roadside,529224.0,180792.0,51.5111824979787,-0.139114122784456,2020-05-01 01:00:00,2023-03-01,2023,2020,POINT (529224.0000387827 180792.00008427037)
340,341,kcl,KSJ,Kings Micromet Kings Bldg Sonic,"Kings Building, Strand Campus",500,ERG Research,Urban Background,530829.0,180852.0,51.5114297353077,-0.11610128291258,2008-10-01 01:00:00,,2024,2008,POINT (530829.0000392643 180852.0000842887)
421,422,kcl,KSK,Kings Micromet Kings Building,"King's Building, Strand Campus",500,ERG Research,Urban Background,530829.0,180852.0,51.5114297353077,-0.11610128291258,2008-01-01,,2024,2008,POINT (530829.0000392643 180852.0000842887)
108,109,kcl,WM5,Westminster - Covent Garden,"London Transport Museum, 39 Wellington Street",33,Westminster,Urban Background,530444.0,180903.0,51.5119769825798,-0.12162720332856,2009-07-10 01:00:00,,2024,2009,POINT (530444.0000391488 180903.00008430338)
480,481,kcl,NB1,Westminster - Strand (Northbank BID),"King's College London, Strand Campus, Strand",33,Westminster,Roadside,530785.0,180911.0,51.5119701188277,-0.116713103528546,2015-04-28 01:00:00,2023-08-12 01:00:00,2023,2015,POINT (530785.0000392512 180911.00008430675)
253,254,kcl,KSS,Kings Micromet Strand Building,"Strand Building, Strand Campus",500,ERG Research,Urban Background,530810.0,180912.0,51.5119733233648,-0.11635267927536,2008-01-01,,2024,2008,POINT (530810.0000392587 180912.00008430704)
259,260,kcl,KSR,Kings Micromet Strand Bldg Sonic,"Kings Building, Strand Campus",500,ERG Research,Urban Background,530810.0,180912.0,51.5119733233648,-0.11635267927536,2009-01-01,,2024,2009,POINT (530810.0000392587 180912.00008430704)
30,31,kcl,GV2,Westminster - Duke Street (Grosvenor),"78 Duke Street, Mayfair",33,Westminster,Roadside,528409.0,180965.0,51.5129998832095,-0.150913488159214,2019-08-22 17:00:00,2024-01-08,2024,2019,POINT (528409.0000385381 180965.0000843224)
437,438,kcl,WM6,Westminster - Oxford Street,"433 Oxford St, Mayfair",33,Westminster,Kerbside,528276.0,181065.0,51.5139287404213,-0.152792701881935,2011-01-01,,2024,2011,POINT (528276.0000384982 181065.0000843532)
410,411,kcl,CT3,City of London - The Aldgate School,The Aldgate School,7,City of London,Urban Background,533480.0,181186.0,51.513847178423,-0.077765681752,2003-01-01,2023-06-30 01:00:00,2023,2003,POINT (533480.00004006 181186.00008438883)
231,232,kcl,CT2,City of London - Farringdon Street,Farringdon Street,7,City of London,Kerbside,531624.0,181217.0,51.5145253362314,-0.104515626337876,2003-01-01,2023-07-03 01:00:00,2023,2003,POINT (531624.000039503 181217.00008439762)
476,477,kcl,WMB,Westminster - Oxford Street East,"94 Oxford St, Fitzrovia ",33,Westminster,Roadside,529493.0,181331.0,51.516066,-0.13516388,2018-06-05 01:00:00,2023-06-08 01:00:00,2023,2018,POINT (529493.0000388634 181331.00008443237)
280,281,kcl,WMC,Westminster - Cavendish Square,"Cavendish Square, Marylebone ",33,Westminster,Roadside,528763.0,181397.0,51.5168016452062,-0.145657269364411,2018-05-31 13:00:00,2023-06-08 01:00:00,2023,2018,POINT (528763.0000386443 181397.00008445128)
142,143,kcl,CT5,City of London Black Smoke (CITY 16),City of London - Guildhall,650,DEFRA Black Smoke,Urban Background,532400.0,181400.0,51.5159886951131,-0.0932703994264833,1972-03-28 01:00:00,,2024,1972,POINT (532400.0000397358 181400.00008445367)
368,369,kcl,EA8,Ealing - Horn Lane,Horn Lane,9,Ealing,Industrial,520432.0,181428.0,51.518948,-0.265617,2005-02-25,,2024,2005,POINT (520432.000036144 181428.00008446217)
353,354,kcl,EI8,Ealing - Horn Lane TEOM,Horn Lane,9,Ealing,Industrial,520432.0,181428.0,51.5189160348806,-0.265652052386222,2005-02-25,,2024,2005,POINT (520432.000036144 181428.00008446217)
158,159,kcl,TL2,Roving Partisol PM2.5,TfL2 - TowerHamlets4,500,ERG Research,Roadside,538299.0,181449.0,51.5150170083421,-0.0082900489089199,2008-07-17 01:00:00,2022-03-03,2022,2008,POINT (538299.0000415063 181449.0000844677)
406,407,kcl,TH4,Tower Hamlets - Blackwall,Blackwall A12 Abbott Road junction,30,Tower Hamlets,Roadside,538290.0,181452.0,51.5150461674013,-0.0084184926564274,2006-09-08 01:00:00,2023-02-15,2023,2006,POINT (538290.0000415036 181452.0000844687)
328,329,kcl,TH0,Tower Hamlets 4 aethalometer,Blackwall A12 Abbott Street junction,500,ERG Research,Roadside,538290.0,181452.0,51.5150461674013,-0.0084184926564274,2010-09-08 01:00:00,2022-02-18,2022,2010,POINT (538290.0000415036 181452.0000844687)
450,451,kcl,NM3,Newham - Wren Close,"Wren Close, Canning Town, Newham",25,Newham,Urban Background,539889.0,181469.0,51.514727,0.014554,2003-03-21,,2024,2003,POINT (539889.0000419834 181469.00008447288)
68,69,kcl,ST4,Sutton - Wallington,Woodcote Road,29,Sutton,Kerbside,528925.0,163804.0,51.3586596124998,-0.149723946604927,2002-07-17 01:00:00,,2024,2002,POINT (528925.000038693 163804.00007917196)
180,181,kcl,CR7,Croydon - Purley Way A23,"Purley Way, Waddon",8,Croydon,Roadside,531151.0,164258.0,51.3622305655403,-0.117604507351392,2012-01-19,,2024,2012,POINT (531151.000039361 164258.00007930805)
28,29,kcl,ST9,Sutton - Beddington Village,"Beddington Lane, by the entrance to Beddington Park",29,Sutton,Roadside,530127.0,165230.0,51.3712010773161,-0.131948824988095,2020-10-16 01:00:00,,2024,2020,POINT (530127.0000390536 165230.00007959997)
485,486,kcl,CR9,Croydon - Park Lane,"Traffic Island, Park Lane, Croydon",8,Croydon,Roadside,532568.0,165599.0,51.3739530635378,-0.0967638468323854,2015-11-02,,2024,2015,POINT (532568.0000397863 165599.0000797116)
167,168,kcl,ST6,Sutton - Worcester Park,"Opposite the Royal British Legion Building, 69-75 Central Road, Worcester Park",29,Sutton,Kerbside,522557.0,165787.0,51.377923,-0.240414,2008-11-04,,2024,2008,POINT (522557.00003678177 165787.0000797686)
473,474,kcl,KT4,Kingston Upon Thames - Tolworth Broadway,"Outside Number 132 Tolworth Broadway, Tolworth",21,Kingston,Roadside,519706.0,165885.0,51.379312,-0.281259,2015-04-13 01:00:00,,2024,2015,POINT (519706.0000359261 165885.0000797966)
263,264,kcl,ST8,Sutton - Beddington Lane ,"Unit A, Prologis Park, 140-142 Beddington Lane",29,Sutton,Industrial,529781.0,166597.0,51.3835652277943,-0.136417861473301,2012-04-04 01:00:00,2020-10-16 01:00:00,2020,2012,POINT (529781.0000389499 166597.00008001132)
147,148,kcl,ST5,Sutton - Beddington Lane north,"Junction of Brookmead Road & Beddington Lane, Sutton",29,Sutton,Industrial,529400.0,167224.0,51.389286904505,-0.141661524779893,2005-12-01,,2024,2005,POINT (529400.0000388356 167224.00008019805)
486,487,kcl,ME9,Merton - Morden Civic Centre 2,Morden Civic Centre,24,Merton,Roadside,525593.0,168498.0,51.40162,-0.19589212,2017-01-27,,2024,2017,POINT (525593.000037693 168498.00008058018)
378,379,kcl,BY7,Bromley - Harwood Avenue,"Portacabin, End of Harwood Avenue",5,Bromley,Roadside,540518.0,169324.0,51.405546,0.018882,1998-07-06 12:00:00,,2024,1998,POINT (540518.0000421723 169324.0000808289)
276,277,kcl,KT5,Kingston Upon Thames - Cromwell Road,Cromwell Rd,21,Kingston,Roadside,518562.0,169519.0,51.412308,-0.29658478,2018-03-12,,2024,2018,POINT (518562.0000355828 169519.00008088682)
472,473,kcl,CR8,Croydon - Norbury Manor,"Norbury Manor Primary School, Abingdon Road",8,Croydon,Urban Background,530325.0,169554.0,51.410039,-0.127523,2014-12-01,,2024,2014,POINT (530325.0000391131 169554.0000808976)
125,126,kcl,CR5,Croydon - Norbury,"London Road, Norbury",8,Croydon,Kerbside,530626.0,169707.0,51.411349,-0.12311,2000-10-05 12:15:00,,2024,2000,POINT (530626.0000392034 169707.00008094375)
416,417,kcl,ME2,Merton - Merton Road,"234 Merton Road, South Wimbledon",24,Merton,Roadside,525808.0,170122.0,51.4161384794862,-0.192230805042824,2011-06-29 01:00:00,,2024,2011,POINT (525808.0000377574 170122.00008106913)
337,338,kcl,TX7,Teddington Grav PM10 1,"National Physical Laboratory, Teddington",500,ERG Research,Suburban,515115.0,170778.0,51.4243043441456,-0.345714576446947,2004-11-15 15:00:00,,2024,2004,POINT (515115.0000345482 170778.0000812654)
335,336,kcl,TX5,Teddington TEOM 1,"National Physical Laboratory, Teddington",500,ERG Research,Suburban,515115.0,170778.0,51.4243043441456,-0.345714576446947,2007-06-11,,2024,2007,POINT (515115.0000345482 170778.0000812654)
427,428,kcl,XD2,Teddington Fidas 2,"National Physical Laboratory, Teddington",500,ERG Research,Suburban,515115.0,170778.0,51.4243043441456,-0.345714576446947,2014-02-20,,2024,2014,POINT (515115.0000345482 170778.0000812654)
323,324,kcl,TD4,Teddington TEOM 2,"National Physical Laboratory, Teddington",500,ERG Research,Suburban,515115.0,170778.0,51.4243043441456,-0.345714576446947,2004-11-15 12:00:00,,2024,2004,POINT (515115.0000345482 170778.0000812654)
338,339,kcl,TX8,Teddington Grav PM10 2,"National Physical Laboratory, Teddington",500,ERG Research,Suburban,515115.0,170778.0,51.4243043441456,-0.345714576446947,2004-11-15 15:00:00,,2024,2004,POINT (515115.0000345482 170778.0000812654)
325,326,kcl,TD6,Teddington FDMS 2,"National Physical Laboratory, Teddington",500,ERG Research,Suburban,515115.0,170778.0,51.4243043441456,-0.345714576446947,2004-11-15 11:00:00,,2024,2004,POINT (515115.0000345482 170778.0000812654)
331,332,kcl,TX1,Teddington FDMSB 1,"National Physical Laboratory, Teddington",500,ERG Research,Suburban,515115.0,170778.0,51.4243043441456,-0.345714576446947,2003-03-17 12:30:00,,2024,2003,POINT (515115.0000345482 170778.0000812654)
332,333,kcl,TX2,Teddington FDMSB 2,"National Physical Laboratory, Teddington",500,ERG Research,Suburban,515115.0,170778.0,51.4243043441456,-0.345714576446947,2004-11-15 11:00:00,,2024,2004,POINT (515115.0000345482 170778.0000812654)
330,331,kcl,TX0,TeddingtonGrav PM25 2,"National Physical Laboratory, Teddington",500,ERG Research,Suburban,515115.0,170778.0,51.4243043441456,-0.345714576446947,2007-06-11 11:00:00,,2024,2007,POINT (515115.0000345482 170778.0000812654)
327,328,kcl,TD8,Teddington Partisol 2,"National Physical Laboratory, Teddington",500,ERG Research,Suburban,515115.0,170778.0,51.4243043441456,-0.345714576446947,2004-11-15 15:00:00,,2024,2004,POINT (515115.0000345482 170778.0000812654)
333,334,kcl,TX3,Teddington FDMSC 1,"National Physical Laboratory, Teddington",500,ERG Research,Suburban,515115.0,170778.0,51.4243043441456,-0.345714576446947,2007-06-11,,2024,2007,POINT (515115.0000345482 170778.0000812654)
326,327,kcl,TD7,Teddington Partisol 1,"National Physical Laboratory, Teddington",500,ERG Research,Suburban,515115.0,170778.0,51.4243043441456,-0.345714576446947,2004-11-15 15:00:00,,2024,2004,POINT (515115.0000345482 170778.0000812654)
257,258,kcl,XD1,Teddington Fidas 1,"National Physical Laboratory, Teddington",500,ERG Research,Suburban,515115.0,170778.0,51.4243043441456,-0.345714576446947,2014-02-20,,2024,2014,POINT (515115.0000345482 170778.0000812654)
321,322,kcl,TD2,Teddington KFG 2,"National Physical Laboratory, Teddington",500,ERG Research,Suburban,515115.0,170778.0,51.4243043441456,-0.345714576446947,2004-11-15 15:00:00,,2024,2004,POINT (515115.0000345482 170778.0000812654)
320,321,kcl,TD1,Teddington KFG 1,"National Physical Laboratory, Teddington",500,ERG Research,Suburban,515115.0,170778.0,51.4243043441456,-0.345714576446947,2004-11-15 15:00:00,,2024,2004,POINT (515115.0000345482 170778.0000812654)
336,337,kcl,TX6,Teddington TEOM 2,"National Physical Laboratory, Teddington",500,ERG Research,Suburban,515115.0,170778.0,51.4243043441456,-0.345714576446947,2007-06-11,,2024,2007,POINT (515115.0000345482 170778.0000812654)
322,323,kcl,TD3,Teddington TEOM 1,"National Physical Laboratory, Teddington",500,ERG Research,Suburban,515115.0,170778.0,51.4243043441456,-0.345714576446947,2004-11-15 12:00:00,,2024,2004,POINT (515115.0000345482 170778.0000812654)
471,472,kcl,TD9,Teddington BAM,"National Physical Laboratory, Teddington",500,ERG Research,Suburban,515115.0,170778.0,51.4243043441456,-0.345714576446947,2013-11-05,,2024,2013,POINT (515115.0000345482 170778.0000812654)
334,335,kcl,TX4,Teddington FDMSC 2,"National Physical Laboratory, Teddington",500,ERG Research,Suburban,515115.0,170778.0,51.4243043441456,-0.345714576446947,2007-06-11,,2024,2007,POINT (515115.0000345482 170778.0000812654)
339,340,kcl,TX9,Teddington Grav PM25 1,"National Physical Laboratory, Teddington",500,ERG Research,Suburban,515115.0,170778.0,51.4243043441456,-0.345714576446947,2007-06-11 11:00:00,,2024,2007,POINT (515115.0000345482 170778.0000812654)
324,325,kcl,TD5,London Teddington Bushy Park ,"National Physical Laboratory, Teddington",27,Richmond,Suburban,515120.0,170884.0,51.4252560360937,-0.345608290872898,2004-11-15,,2024,2004,POINT (515120.0000345498 170884.00008129678)
451,452,kcl,LB6,Lambeth - Streatham Green,"Streatham Green, London",22,Lambeth,Urban Background,529971.0,171570.0,51.4282131429499,-0.13186863879576,2009-08-17 01:00:00,,2024,2009,POINT (529971.0000390068 171570.00008150295)
447,448,kcl,WAB,Wandsworth - Tooting High Street,"Tooting High Street, Wandsworth",32,Wandsworth,Roadside,527567.0,171628.0,51.429331,-0.166524,2015-06-11 01:00:00,,2024,2015,POINT (527567.0000382854 171628.00008152064)
277,278,kcl,KT6,Kingston Upon Thames - Kingston Vale,Kingston Vale,21,Kingston,Roadside,521251.0,172166.0,51.4355006647773,-0.257029893767993,2018-03-12,,2024,2018,POINT (521251.0000363898 172166.0000816809)
400,401,kcl,GN4,Greenwich - Fiveways Sidcup Rd A20,A20 Five Ways,11,Greenwich,Roadside,543582.0,172653.0,51.4346627060562,0.0642224671704697,2011-01-24,,2024,2011,POINT (543582.0000430918 172653.00008182786)
390,391,kcl,LW1,Lewisham - Catford,"Catford Town Hall, Catford",23,Lewisham,Urban Background,537675.0,173689.0,51.445468,-0.020266,1996-08-02 16:00:00,2021-11-03,2021,1996,POINT (537675.0000413189 173689.0000821394)
443,444,kcl,RHH,Richmond Upon Thames - Chertsey Road,Outside Richmond Upon Thames College near the junction of Egerton Road and Chertsey Road,503,Mobile sites,Roadside,515355.0,173992.0,51.4531422511004,-0.341218138106469,2016-05-24 01:00:00,2020-08-06 01:00:00,2020,2016,POINT (515355.0000346203 173992.00008223002)
131,132,kcl,RHG,Richmond Upon Thames - Chertsey Road,Outside Richmond Upon Thames College near the junction of Egerton Road and Chertsey Road,27,Richmond,Roadside,515355.0,173992.0,51.4531422511004,-0.341218138106469,2016-05-24 01:00:00,2020-08-06 01:00:00,2020,2016,POINT (515355.0000346203 173992.00008223002)
48,49,kcl,HP7,Honor Oak Park Digitel,"King's College Sports Ground, Honor Oak Park",651,DEFRA Particles,Urban Background,536473.0,174128.0,51.4496728960354,-0.0374153592115306,2018-11-27,,2024,2018,POINT (536473.0000409583 174128.00008227053)
58,59,kcl,HPY,Honor Oak Park Ammonia,"King's College Sports Ground, Honor Oak Park",651,DEFRA Particles,Urban Background,536473.0,174128.0,51.4496728960354,-0.0374153592115306,2018-11-27,,2024,2018,POINT (536473.0000409583 174128.00008227053)
65,66,kcl,HP2,Honor Oak Park SMPS,"King's College Sports Ground, Honor Oak Park",651,DEFRA Particles,Urban Background,536473.0,174128.0,51.449695,-0.03742133,2018-11-27,2023-03-03,2023,2018,POINT (536473.0000409583 174128.00008227053)
66,67,kcl,HP6,Honor Oak Park URG,"King's College Sports Ground, Honor Oak Park",651,DEFRA Particles,Urban Background,536473.0,174128.0,51.4496728960354,-0.0374153592115306,2018-11-27,2020-08-26 01:00:00,2020,2018,POINT (536473.0000409583 174128.00008227053)
37,38,kcl,OP3,Honor Oak Park Aethalometer,"King's College Sports Ground, Honor Oak Park",651,DEFRA Particles,Urban Background,536473.0,174128.0,51.4496728960354,-0.0374153592115306,2008-10-01 01:00:00,2021-10-12 01:00:00,2021,2008,POINT (536473.0000409583 174128.00008227053)
67,68,kcl,HP9,Honor Oak Park EC/OC Partisol,"King's College Sports Ground, Honor Oak Park",651,DEFRA Particles,Urban Background,536473.0,174128.0,51.4496728960354,-0.0374153592115306,2018-11-27,2022-07-01 01:00:00,2022,2018,POINT (536473.0000409583 174128.00008227053)
105,106,kcl,HP4,Honor Oak Park CPC,"King's College Sports Ground, Honor Oak Park",651,DEFRA Particles,Urban Background,536473.0,174128.0,51.4496728960354,-0.0374153592115306,2018-11-27,,2024,2018,POINT (536473.0000409583 174128.00008227053)
106,107,kcl,HP1,Lewisham - Honor Oak Park,"King's College Sports Ground, Honor Oak Park",23,Lewisham,Urban Background,536473.0,174128.0,51.4496728960354,-0.0374153592115306,2018-11-27,,2024,2018,POINT (536473.0000409583 174128.00008227053)
107,108,kcl,HP3,Honor Oak Park Aethalometer,"King's College Sports Ground, Honor Oak Park",651,DEFRA Particles,Urban Background,536473.0,174128.0,51.4496728960354,-0.0374153592115306,2008-10-01 01:00:00,,2024,2008,POINT (536473.0000409583 174128.00008227053)
345,346,kcl,IM1,Camden - Holborn (Bee Midtown),"Inmidtown Kiosk, Outside Holborn Station",6,Camden,Kerbside,530528.0,181505.0,51.5173675146177,-0.1201947113171,2014-02-06,2023-05-02 01:00:00,2023,2014,POINT (530528.000039174 181505.0000844847)
475,476,kcl,KF1,Kensington and Chelsea - North Ken FIDAS,"Sion Manning School, St. Charles' square, North Kensington",20,Kensington and Chelsea,Urban Background,524045.0,181752.0,51.5210467476039,-0.213492139585065,2017-02-20,,2024,2017,POINT (524045.00003722834 181752.00008455972)
352,353,kcl,XK1,North Kensington Composite site,,500,ERG Research,Urban Background,524045.0,181752.0,51.5210467476039,-0.213492139585065,2012-01-01,,2024,2012,POINT (524045.00003722834 181752.00008455972)
272,273,kcl,XK3,North Kensington Aethalometer 7WL,,500,ERG Research,Urban Background,524045.0,181752.0,51.5210467476039,-0.213492139585065,2012-01-01,,2024,2012,POINT (524045.00003722834 181752.00008455972)
117,118,kcl,NK8,North Kensington - CO High Sensitivity,"Sion Manning School, St. Charles' square",500,ERG Research,Urban Background,524045.0,181752.0,51.5210467476039,-0.213492139585065,2011-04-12 01:00:00,,2024,2011,POINT (524045.00003722834 181752.00008455972)
387,388,kcl,KC1,Kensington and Chelsea - North Ken,"Sion Manning School, St. Charles' square, North Kensington",20,Kensington and Chelsea,Urban Background,524045.0,181752.0,51.5210467476039,-0.213492139585065,1995-03-17,,2024,1995,POINT (524045.00003722834 181752.00008455972)
52,53,kcl,N7K,North Kensington Aethalometer 7wl,"Sion Manning School, St. Charles' square, North Kensington",650,DEFRA Black Smoke,Urban Background,524045.0,181752.0,51.5210467476039,-0.213492139585065,2019-11-07 09:00:00,,2024,2019,POINT (524045.00003722834 181752.00008455972)
448,449,kcl,XK2,North Kensington PIXE,"Sion Manning School, St. Charles' square",500,ERG Research,Urban Background,524045.0,181752.0,51.5210467476039,-0.213492139585065,2014-04-18 01:00:00,,2024,2014,POINT (524045.00003722834 181752.00008455972)
213,214,kcl,KC6,Kens and Chelsea 6 - N Ken Par PM10,"Sion Manning School, St. Charles' square, North Kensington",500,ERG Research,Urban Background,524045.0,181752.0,51.5210467476039,-0.213492139585065,2000-09-07 01:00:00,,2024,2000,POINT (524045.00003722834 181752.00008455972)
266,267,kcl,XK5,North Kensington APS,,500,ERG Research,Urban Background,524045.0,181752.0,51.5210467476039,-0.213492139585065,2012-01-01,,2024,2012,POINT (524045.00003722834 181752.00008455972)
232,233,kcl,CT4,City of London - Beech Street,Beech Street,7,City of London,Roadside,532191.0,181866.0,51.520225273171,-0.0961060474176381,2003-01-01,2023-07-03 01:00:00,2023,2003,POINT (532191.0000396732 181866.00008459302)
233,234,kcl,EI1,Ealing - Western Avenue,Ealing - Western Avenue Acton,9,Ealing,Roadside,520430.0,181950.0,51.5236078191481,-0.265502631799754,2010-03-19,,2024,2010,POINT (520430.00003614346 181950.00008461712)
115,116,kcl,BL0,Camden - Bloomsbury,"Russell Square Gardens, Bloomsbury",6,Camden,Urban Background,530123.0,182014.0,51.522287,-0.125848,1992-01-23,,2024,1992,POINT (530123.0000390525 182014.00008463825)
13,14,kcl,MS5,Marylebone Road ACSM,"Cabin opposite Madame Tussauds, Marylebone Road",650,DEFRA Black Smoke,Kerbside,528125.0,182016.0,51.5225093597419,-0.154622154656843,1997-08-12 10:00:00,,2024,1997,POINT (528125.0000384529 182016.0000846382)
469,470,kcl,MYI,Marylebone Road Increment,"Cabin opposite Madame Tussauds, Marylebo",500,ERG Research,Kerbside,528125.0,182016.0,51.5225093597419,-0.154622154656843,2014-09-24 01:00:00,,2024,2014,POINT (528125.0000384529 182016.0000846382)
372,373,kcl,MR2,Marylebone Road SMPS,"Cabin opposite Madame Tussauds, Marylebone Road",651,DEFRA Particles,Kerbside,528125.0,182016.0,51.5223667052165,-0.154699996073154,2005-05-28 01:00:00,2023-01-23,2023,2005,POINT (528125.0000384529 182016.0000846382)
18,19,kcl,MS2,Marylebone Road SMPS 3083,"Cabin opposite Madame Tussauds, Marylebone Road",651,DEFRA Particles,Kerbside,528125.0,182016.0,51.5225093597419,-0.154622154656843,2005-05-28 01:00:00,,2024,2005,POINT (528125.0000384529 182016.0000846382)
33,34,kcl,MS6,Marylebone Road Metals Digitel,"Cabin opposite Madame Tussauds, Marylebone Road",650,DEFRA Black Smoke,Kerbside,528125.0,182016.0,51.5225093597419,-0.154622154656843,1997-08-12 10:00:00,,2024,1997,POINT (528125.0000384529 182016.0000846382)
371,372,kcl,MY9,Marylebone Road - Partisol SO4,"Cabin opposite Madame Tussauds, Marylebone Road",501,Marylebone Road,Kerbside,528125.0,182016.0,51.5225093597419,-0.154622154656843,2005-01-01,2022-03-15,2022,2005,POINT (528125.0000384529 182016.0000846382)
226,227,kcl,MY4,Marylebone Rd - Partisol PM10 and Magee,"Cabin opposite Madame Tussauds, Marylebone Road",501,Marylebone Road,Kerbside,528125.0,182016.0,51.5223667052165,-0.154699996073154,2000-09-07 01:00:00,,2024,2000,POINT (528125.0000384529 182016.0000846382)
224,225,kcl,MG5,Marylebone Rd - Traffic,Marylebone Rd Traffic middle lane eastbound,501,Marylebone Road,Kerbside,528125.0,182016.0,51.5225093597419,-0.154622154656843,1998-07-09 01:00:00,,2024,1998,POINT (528125.0000384529 182016.0000846382)
346,347,kcl,JC1,Portable Sensor - CanariT 405,Marylebone Road trial,506,Portable sensor trials,Kerbside,528125.0,182016.0,51.5225093597419,-0.154622154656843,2012-07-01 01:00:00,,2024,2012,POINT (528125.0000384529 182016.0000846382)
227,228,kcl,MY5,Marylebone Rd - KFG and MAAP,"Cabin opposite Madame Tussauds, Marylebone Road",501,Marylebone Road,Kerbside,528125.0,182016.0,51.5223667052165,-0.154699996073154,1999-06-03 01:00:00,,2024,1999,POINT (528125.0000384529 182016.0000846382)
223,224,kcl,MG4,Marylebone Rd - Traffic,Marylebone Rd Traffic offside lane eastbound,501,Marylebone Road,Kerbside,528125.0,182016.0,51.5225093597419,-0.154622154656843,1998-07-09 01:00:00,,2024,1998,POINT (528125.0000384529 182016.0000846382)
267,268,kcl,MR8,Marylebone Road - BAM,"Cabin opposite Madame Tussauds, Marylebo",33,Westminster,Kerbside,528125.0,182016.0,51.5225093597419,-0.154622154656843,2012-01-11,,2024,2012,POINT (528125.0000384529 182016.0000846382)
477,478,kcl,MR9,Marylebone Road - Fidas,"Cabin opposite Madame Tussauds, Marylebone Road",500,ERG Research,Kerbside,528125.0,182016.0,51.5225093597419,-0.154622154656843,2017-02-20,,2024,2017,POINT (528125.0000384529 182016.0000846382)
222,223,kcl,MG3,Marylebone Rd - Traffic,Marylebone Rd Traffic offside lane westbound,501,Marylebone Road,Kerbside,528125.0,182016.0,51.5225093597419,-0.154622154656843,1998-07-09 01:00:00,,2024,1998,POINT (528125.0000384529 182016.0000846382)
221,222,kcl,MG2,Marylebone Rd - Traffic,Marylebone Rd Traffic middle lane westbound,501,Marylebone Road,Kerbside,528125.0,182016.0,51.5225093597419,-0.154622154656843,1998-07-09 01:00:00,,2024,1998,POINT (528125.0000384529 182016.0000846382)
264,265,kcl,CO2,CO2 network,Various,500,ERG Research,Roadside,528125.0,182016.0,51.5225093597419,-0.154622154656843,2010-01-01,,2024,2010,POINT (528125.0000384529 182016.0000846382)
112,113,kcl,MY7,Westminster - Marylebone Road FDMS,"Cabin opposite Madame Tussauds, Marylebone Road",33,Westminster,Kerbside,528125.0,182016.0,51.52254,-0.15459,2004-01-22 12:00:00,2021-12-21 08:00:00,2021,2004,POINT (528125.0000384529 182016.0000846382)
151,152,kcl,MR3,Marylebone Road Aethalometer,"Cabin opposite Madame Tussauds, Marylebone Road",650,DEFRA Black Smoke,Kerbside,528125.0,182016.0,51.5223667052165,-0.154699996073154,1997-08-12 10:00:00,2023-01-31,2023,1997,POINT (528125.0000384529 182016.0000846382)
34,35,kcl,MS7,Marylebone Road EC/OC Digitel,"Cabin opposite Madame Tussauds, Marylebone Road",650,DEFRA Black Smoke,Kerbside,528125.0,182016.0,51.5225093597419,-0.154622154656843,1997-08-12 10:00:00,,2024,1997,POINT (528125.0000384529 182016.0000846382)
5,6,kcl,MS3,Marylebone Road Aethalometer,"Cabin opposite Madame Tussauds, Marylebone Road",650,DEFRA Black Smoke,Kerbside,528125.0,182016.0,51.5225093597419,-0.154622154656843,1997-08-12 10:00:00,,2024,1997,POINT (528125.0000384529 182016.0000846382)
116,117,kcl,MY1,Westminster - Marylebone Road,"Cabin opposite Madame Tussauds, Marylebone Road",33,Westminster,Kerbside,528125.0,182016.0,51.52254,-0.15459,1997-05-26 13:00:00,,2024,1997,POINT (528125.0000384529 182016.0000846382)
396,397,kcl,MR1,Marylebone Road - CPC,"Cabin opposite Madame Tussauds, Marylebone Road",651,DEFRA Particles,Kerbside,528125.0,182016.0,51.5223667052165,-0.154699996073154,2005-05-28 01:00:00,,2024,2005,POINT (528125.0000384529 182016.0000846382)
347,348,kcl,JC2,Portable Sensor - CanariT 406,Marylebone Road trial,506,Portable sensor trials,Kerbside,528125.0,182016.0,51.5225093597419,-0.154622154656843,2012-07-01 01:00:00,,2024,2012,POINT (528125.0000384529 182016.0000846382)
457,458,kcl,MR6,Marylebone Road - URG,"Cabin opposite Madame Tussauds, Marylebone Road",651,DEFRA Particles,Kerbside,528125.0,182016.0,51.5225093597419,-0.154622154656843,2011-01-20,2020-07-06 01:00:00,2020,2011,POINT (528125.0000384529 182016.0000846382)
225,226,kcl,MG6,Marylebone Rd - Traffic,Marylebone Rd Traffic nearside lane eastbound,501,Marylebone Road,Kerbside,528125.0,182016.0,51.5225093597419,-0.154622154656843,1998-07-09 01:00:00,,2024,1998,POINT (528125.0000384529 182016.0000846382)
393,394,kcl,MG1,Marylebone Rd - Traffic,"Marylebone Rd Traffic nearside lane westbound, cabin",501,Marylebone Road,Kerbside,528125.0,182016.0,51.5225093597419,-0.154622154656843,1998-07-09 01:00:00,,2024,1998,POINT (528125.0000384529 182016.0000846382)
260,261,kcl,VVR,Vaisala Road Sensor - Regents Park,"Regents Park Tube, Marylebone Road",500,ERG Research,Kerbside,528678.0,182166.0,51.5237317623683,-0.146601055558886,2007-01-01,,2024,2007,POINT (528678.0000386188 182166.00008468266)
69,70,kcl,TH2,Tower Hamlets - Mile End Road,"Queen Mary and Westfield College, Engineering Department, corner of Bancroft and Mile End Roads",30,Tower Hamlets,Roadside,535927.0,182221.0,51.5225294860844,-0.0421550991900347,1994-03-10,,2024,1994,POINT (535927.0000407944 182221.00008470076)
134,135,kcl,HK6,Hackney - Old Street,Old Street,12,Hackney,Roadside,532947.0,182575.0,51.526454,-0.08491,2000-06-01,,2024,2000,POINT (532947.0000399 182575.00008480606)
418,419,kcl,CD9,Camden - Euston Road,Euston Road at junction with Dukes Road ,6,Camden,Roadside,529903.0,182666.0,51.527975,-0.1287742,2011-01-29,2020-07-02 01:00:00,2020,2011,POINT (529903.0000389864 182666.00008483388)
137,138,kcl,EA6,Ealing - Hanger Lane Gyratory,Hanger Lane,9,Ealing,Roadside,518537.0,182708.0,51.53085,-0.292488,2003-08-04 01:00:00,,2024,2003,POINT (518537.0000355753 182708.00008484488)
474,475,kcl,BT8,Brent - ARK Franklin Primary Academy,"ARK Franklin Primary Academy, Chamberlayne Road, London",4,Brent,Roadside,523721.0,183008.0,51.5324054617809,-0.217718908639377,2017-10-30,,2024,2017,POINT (523721.00003713113 183008.00008493522)
234,235,kcl,KX4,Camden - Coopers Lane,Coopers Lane,6,Camden,Industrial,529831.0,183250.0,51.533238,-0.129594,2009-07-01 01:00:00,2020-07-01 01:00:00,2020,2009,POINT (529831.0000389648 183250.00008500786)
394,395,kcl,BT6,Brent - John Keble Primary School,"John Keble Primary School, Crownhill Road",4,Brent,Roadside,521619.0,183554.0,51.537799,-0.247793,2006-11-01,,2024,2006,POINT (521619.0000365003 183554.00008510024)
8,9,kcl,KX8,Kings Cross - Tapestry Building,"Tapestry Building, 3 Canal Reach, London",503,Mobile sites,Urban Background,529903.0,183740.0,51.5375964796089,-0.128373685865815,2019-08-27 01:00:00,2020-02-13,2020,2019,POINT (529903.0000389864 183740.00008515513)
244,245,kcl,NM2,Newham - Cam Road,"Cam Road, Newham",25,Newham,Roadside,538661.0,183969.0,51.537598,-0.002138,1998-08-18 01:00:00,,2024,1998,POINT (538661.000041615 183969.00008522486)
380,381,kcl,CD1,Camden - Swiss Cottage,"Corner of Finchley Road and College Crescent, Swiss Cottage",6,Camden,Kerbside,526629.0,184391.0,51.544219,-0.175284,1996-04-16 14:30:00,,2024,1996,POINT (526629.0000380039 184391.00008535048)
446,447,kcl,VVG,Vaisala Road Sensor - Gutteridge Wood,"Gutteridge Wood, A40",500,ERG Research,Kerbside,509304.0,184499.0,51.548806,-0.425015,2000-01-01,,2024,2000,POINT (509304.0000328043 184499.00008538458)
261,262,kcl,XB2,Brent - Ikea,"Brent Park Ikea, Drury Way",500,ERG Research,Roadside,520866.0,185169.0,51.5524446258665,-0.258117055902041,2015-05-18 01:00:00,,2024,2015,POINT (520866.00003627426 185169.00008558406)
104,105,kcl,BT4,Brent - Ikea,"Brent Park Ikea, Drury Way",4,Brent,Roadside,520866.0,185169.0,51.552476,-0.258089,2003-06-20 07:00:00,,2024,2003,POINT (520866.00003627426 185169.00008558406)
304,305,kcl,BT0,Brent 4 - aethalometer,"Brent Park Ikea, Drury Way",500,ERG Research,Roadside,520866.0,185169.0,51.5524446258665,-0.258117055902041,2010-09-08 01:00:00,2021-09-16 01:00:00,2021,2010,POINT (520866.00003627426 185169.00008558406)
113,114,kcl,BT5,Brent - Neasden Lane,"Neasden Lane, Neasden",4,Brent,Industrial,521511.0,185204.0,51.552656,-0.248774,2004-02-29 23:00:00,,2024,2004,POINT (521511.00003646786 185204.0000855949)
386,387,kcl,IS2,Islington - Holloway Road,Holloway Road,19,Islington,Roadside,530698.0,185735.0,51.555378,-0.116146,2000-07-12 07:45:00,,2024,2000,POINT (530698.0000392251 185735.00008575356)
411,412,kcl,IS6,Islington - Arsenal,"Islington Ecology Centre, 191 Drayton Pk",19,Islington,Urban Background,531325.0,186032.0,51.557895,-0.106989,2007-03-14,,2024,2007,POINT (531325.0000394132 186032.00008584285)
467,468,kcl,RB7,Redbridge - Ley Street,"Ley Street Depot, Ley Street, Ilford",26,Redbridge,Urban Background,544454.0,187682.0,51.5694843315237,0.0829074748964946,2014-05-15 01:00:00,,2024,2014,POINT (544454.0000433535 187682.00008633756)
121,122,kcl,RB4,Redbridge - Gardner Close,Gardner Close,26,Redbridge,Roadside,540823.0,188369.0,51.57661,0.030858,1999-11-21 13:00:00,,2024,1999,POINT (540823.0000422638 188369.00008654548)
118,119,kcl,HG4,Haringey  - Priory Park South,"Service Yard, Priory Park, Barrington Rd",14,Haringey,Urban Background,529977.0,188903.0,51.5839769007709,-0.125400278484885,2012-10-25 01:00:00,,2024,2012,POINT (529977.0000390087 188903.00008670508)
136,137,kcl,HR2,Harrow - Pinner Road,"Pinner Road, North Harrow",15,Harrow,Roadside,513504.0,188998.0,51.588417,-0.362989,2003-06-16 01:00:00,2023-07-31 01:00:00,2023,2003,POINT (513504.00003406487 188998.00008673355)
133,134,kcl,HG1,Haringey - Haringey Town Hall,"Env. Services Dept, Haringey Council Offices, High Road (A10)",14,Haringey,Roadside,533891.0,190707.0,51.599302,-0.068218,1994-11-29 12:00:00,,2024,1994,POINT (533891.0000401833 190707.00008724694)
114,115,kcl,EN5,Enfield - Bowes Primary School,"Bowes Primary School, A406, Bowes Road",10,Enfield,Roadside,529894.0,192223.0,51.613865,-0.125338,2004-07-01 01:00:00,,2024,2004,POINT (529894.0000389838 192223.00008770032)
135,136,kcl,HR1,Harrow - Stanmore,"Harrow - Aylward School, Stanmore",15,Harrow,Urban Background,517877.0,192314.0,51.617327,-0.298775,1999-04-10 11:00:00,2023-08-14 01:00:00,2023,1999,POINT (517877.0000353772 192314.0000877289)
127,128,kcl,EN4,Enfield - Derby Road,Derby Road,10,Enfield,Roadside,535056.0,192470.0,51.614864007,-0.0507658363689,2000-02-29 09:15:00,,2024,2000,POINT (535056.000040533 192470.00008777675)
126,127,kcl,EN1,Enfield - Bush Hill Park,"Bushill Library, Main Avenue",10,Enfield,Suburban,533900.0,195800.0,51.6450367266602,-0.0661800662229116,1995-06-29 09:00:00,,2024,1995,POINT (533900.000040186 195800.00008877384)
140,141,kcl,EN6,Enfield Black Smoke (ENFIELD 14),Enfield,650,DEFRA Black Smoke,Urban Background,533800.0,195800.0,51.6450605072535,-0.0676244512720117,1961-04-04 01:00:00,,2024,1961,POINT (533800.0000401561 195800.0000887746)
420,421,kcl,EN7,Enfield - Prince of Wales School,"Salisbury Road, Enfield",10,Enfield,Urban Background,536885.0,198507.0,51.66864334727,-0.02200720557,2012-07-09 01:00:00,,2024,2012,POINT (536885.0000410819 198507.000089587)
215,216,kcl,LH4,T5 - Main Road,"Main Road Nurseries, Stanwell Moor Road, Stanwell Moor",500,ERG Research,Urban Background,504780.0,175510.0,51.4688402823145,-0.492903218854378,2001-05-04 13:00:00,,2024,2001,POINT (504780.0000314466 175510.00008268474)
217,218,kcl,LH6,T5 - Bedfont,"Bedfont Court, Spout Lane N., Stanwell Moor",500,ERG Research,Urban Background,504466.0,175794.0,51.471450973644,-0.49733825602615,2001-06-01 01:00:00,,2024,2001,POINT (504466.0000313523 175794.00008277048)
216,217,kcl,LH5,T5 - Moorbridge,"Bath Road, Colnbrook",500,ERG Research,Urban Background,504393.0,176591.0,51.4786281703209,-0.498153653355923,2001-06-01 01:00:00,,2024,2001,POINT (504393.0000313304 176591.0000830097)
152,153,kcl,LH1,UKMO Heathrow Airport,"Heathrow Airport, Harlington",500,ERG Research,Urban Background,507600.0,176700.0,51.4790076192899,-0.451958197008976,1947-01-01,,2024,1947,POINT (507600.0000322929 176700.00008304277)
219,220,kcl,LH8,T5 - Green Gates,"Green Gates Meadow, Bath Road, Longford",500,ERG Research,Urban Background,505185.0,176922.0,51.4814567539738,-0.486654812244341,2001-06-01 01:00:00,,2024,2001,POINT (505185.00003156805 176922.00008310884)
360,361,kcl,LH0,Hillingdon - Harlington,"Heathrow Airport, Harlington",17,Hillingdon,Urban Background,508300.0,177800.0,51.48878,-0.441627,2004-01-01,,2024,2004,POINT (508300.0000325029 177800.00008337398)
362,363,kcl,HI0,Hillingdon - Keats Way,West Drayton,17,Hillingdon,Suburban,506945.0,178609.0,51.496309,-0.460826,1996-08-02 01:00:00,,2024,1996,POINT (506945.0000320963 178609.0000836164)
